City,Lat,Lng,Max Temp,Humidity,Cloudiness,Wind Speed,Country,Date
Kapaa,22.0752,-159.319,75.99,83,75,11.5,US,1613871887
Barrow,71.2906,-156.7887,-16.6,76,75,9.22,US,1613871622
Longyearbyen,78.2186,15.6401,23.0,63,40,6.91,SJ,1613872043
Sainte-Rose,16.3324,-61.6979,73.4,83,0,3.44,GP,1613872043
Zenzeli,45.9241,47.0474,18.59,95,7,7.63,RU,1613872044
Kutum,14.2,24.6667,49.71,42,0,10.31,SD,1613872044
Hasaki,35.7333,140.8333,64.0,48,0,8.05,JP,1613871755
Qaanaaq,77.484,-69.3632,-31.59,73,1,3.85,GL,1613871954
Atuona,-9.8,-139.0333,79.5,81,98,11.81,PF,1613871624
Avarua,-21.2078,-159.775,82.4,78,75,6.91,CK,1613871621
Khatanga,71.9667,102.5,-21.77,87,100,8.03,RU,1613871625
Rikitea,-23.1203,-134.9692,79.88,65,4,4.07,PF,1613871623
Burgersdorp,-30.9977,26.3286,54.01,64,0,3.58,ZA,1613872045
Castro,-24.7911,-50.0119,62.96,97,17,9.06,BR,1613871952
Benguela,-12.5763,13.4055,73.29,77,100,2.55,AO,1613872045
Santa Rosalía,27.3167,-112.2833,61.79,42,48,6.51,MX,1613872045
Tartagal,-22.5164,-63.8013,75.74,74,95,4.05,AR,1613872045
Nago,26.5881,127.9761,68.0,45,40,6.91,JP,1613872046
Kosum Phisai,16.2486,103.0674,78.01,77,75,2.3,TH,1613872046
Cape Town,-33.9258,18.4232,64.99,72,75,5.75,ZA,1613872046
Labuhan,-6.8844,112.2051,80.37,81,100,6.82,ID,1613872046
Saint-Philippe,-21.3585,55.7679,78.8,78,40,6.91,RE,1613871629
Nouadhibou,20.931,-17.0347,60.8,94,0,11.5,MR,1613872046
Mataura,-46.1927,168.8643,77.16,28,0,4.27,NZ,1613871621
Patrocínio,-18.9439,-46.9925,69.01,100,1,4.47,BR,1613872047
Garissa,-0.4536,39.6401,76.55,75,100,8.57,KE,1613871950
Ushuaia,-54.8,-68.3,46.4,81,90,23.02,AR,1613871880
Hilo,19.7297,-155.09,80.6,57,40,9.22,US,1613871628
Coihueco,-36.6167,-71.8333,68.0,34,0,4.61,CL,1613872047
Ilulissat,69.2167,-51.1,-0.4,65,40,12.66,GL,1613872047
Kamenka,51.3223,42.7678,9.0,95,99,4.99,RU,1613872047
Arraial do Cabo,-22.9661,-42.0278,76.75,88,0,3.06,BR,1613871884
Auki,-8.7676,160.7034,83.25,76,100,3.33,SB,1613872048
Athens,37.9795,23.7162,50.0,71,75,8.05,GR,1613871808
Havelock,34.8791,-76.9013,36.0,71,0,1.01,US,1613871980
Labytnangi,66.6572,66.4183,-27.9,84,100,0.65,RU,1613872048
Touros,-5.1989,-35.4608,80.6,78,20,8.05,BR,1613872049
San Felipe,10.3399,-68.7425,69.39,88,100,5.17,VE,1613872049
Forsytheganj,52.6333,29.7333,33.44,96,100,8.9,BY,1613872049
Albany,42.6001,-73.9662,23.0,63,20,12.66,US,1613871704
Garoowe,8.4054,48.4845,62.44,89,86,8.1,SO,1613872049
Qaqortoq,60.7167,-46.0333,19.4,79,90,4.61,GL,1613872050
Eyl,7.9803,49.8164,71.22,77,100,14.67,SO,1613872050
Sinnamary,5.3833,-52.95,77.58,81,70,13.35,GF,1613871622
Nanortalik,60.1432,-45.2371,15.84,91,46,12.03,GL,1613871879
Severodvinsk,64.5635,39.8302,-31.0,75,20,2.24,RU,1613872050
Hofn,64.2539,-15.2082,39.79,71,100,21.39,IS,1613872050
George Town,5.4112,100.3354,82.4,65,20,8.05,MY,1613871911
Bredasdorp,-34.5322,20.0403,60.8,72,6,8.05,ZA,1613871623
Bluff,-46.6,168.3333,63.59,64,0,8.19,NZ,1613871627
Dikson,73.5069,80.5464,-8.16,91,100,8.37,RU,1613871879
Ha Giang,22.8333,104.9833,71.58,63,94,1.61,VN,1613872111
Marystown,47.1666,-55.1483,21.76,95,100,16.28,CA,1613872111
Busselton,-33.65,115.3333,69.01,72,13,3.0,AU,1613871624
Morro Agudo,-20.7314,-48.0578,78.8,61,0,4.61,BR,1613872112
Puerto Maldonado,-12.6,-69.1833,74.01,95,100,1.88,PE,1613872112
Vaini,-21.2,-175.2,82.4,61,75,11.5,TO,1613871621
Hambantota,6.1241,81.1185,73.4,100,20,4.61,LK,1613872112
Riosucio,5.4216,-75.7032,71.6,78,40,2.3,CO,1613872108
Saldanha,-33.0117,17.9442,62.96,79,0,8.57,ZA,1613871882
Mar del Plata,-38.0023,-57.5575,63.0,72,0,8.7,AR,1613871691
Codrington,-38.2667,141.9667,63.79,58,94,10.18,AU,1613872089
Hermanus,-34.4187,19.2345,59.0,93,19,1.99,ZA,1613871950
Conceição do Araguaia,-8.2578,-49.2647,72.18,95,100,0.72,BR,1613872114
Yeppoon,-23.1333,150.7333,93.2,43,40,8.05,AU,1613871963
Port-Cartier,50.0334,-66.8654,12.0,52,1,8.05,CA,1613872114
Majene,-3.5403,118.9707,87.17,58,27,6.71,ID,1613872114
Faanui,-16.4833,-151.75,81.97,77,100,14.29,PF,1613872114
Puerto Colombia,10.9878,-74.9547,80.6,74,0,13.8,CO,1613872114
Bogoslovka,53.2084,44.8013,-3.15,93,100,2.15,RU,1613872115
Saint-Pierre,-21.3393,55.4781,78.8,73,0,5.75,RE,1613872115
Bam,29.106,58.357,59.05,42,75,6.46,IR,1613872115
Souillac,-20.5167,57.5167,77.0,88,40,4.61,MU,1613872115
Dubrovka,53.6907,33.5071,19.63,98,100,5.46,RU,1613872115
Lebu,-37.6167,-73.65,56.05,79,0,19.73,CL,1613871627
Eloy,32.7559,-111.5548,73.4,9,1,17.27,US,1613872116
Pisco,-13.7,-76.2167,73.0,73,0,16.11,PE,1613872116
Iberia,29.9502,-91.7507,46.0,76,1,5.75,US,1613872116
Geraldton,-28.7667,114.6,80.6,41,0,5.75,AU,1613872116
Semnan,35.5729,53.3971,39.29,62,0,1.16,IR,1613872116
San Policarpo,12.1791,125.5072,79.86,88,100,25.39,PH,1613872116
Alice Springs,-23.7,133.8833,96.8,17,0,6.91,AU,1613872117
Mersing,2.4312,103.8405,80.6,78,40,10.36,MY,1613872117
Puerto Ayora,-0.7393,-90.3518,79.0,88,49,8.01,EC,1613871621
Ambunti,-4.2365,142.8448,93.27,53,32,2.04,PG,1613872117
Provideniya,64.3833,-173.3,-4.0,77,90,15.66,RU,1613872117
Tamandaré,-8.7597,-35.1047,78.46,82,100,9.1,BR,1613872118
Jamestown,42.097,-79.2353,19.99,93,90,12.66,US,1613871881
Atar,20.5169,-13.0499,62.65,25,0,3.78,MR,1613871954
São João da Barra,-21.6403,-41.0511,75.45,90,100,13.8,BR,1613872118
Hobyo,5.3505,48.5268,76.37,77,100,17.65,SO,1613872118
Virden,39.5009,-89.7679,28.0,75,100,5.01,US,1613872118
Portland,45.5234,-122.6762,48.0,65,100,7.31,US,1613871488
Zhangye,38.9342,100.4517,40.68,49,87,0.51,CN,1613872179
Aklavik,68.2191,-135.0107,-14.8,70,28,2.3,CA,1613871948
Lüderitz,-26.6481,15.1594,62.46,69,0,25.43,NA,1613872179
Faranah,10.0404,-10.7434,77.09,68,7,6.73,GN,1613872179
Puerto Nariño,-3.7703,-70.3831,77.0,100,75,3.58,CO,1613872179
Tuktoyaktuk,69.4541,-133.0374,-20.2,76,75,14.97,CA,1613871886
La Ronge,55.1001,-105.2842,30.2,59,100,4.61,CA,1613872179
Punta Arenas,-53.15,-70.9167,53.6,71,90,8.05,CL,1613871438
Aloleng,16.1307,119.7824,77.11,51,98,7.85,PH,1613872180
Mount Gambier,-37.8333,140.7667,66.2,52,90,8.05,AU,1613872180
Sena Madureira,-9.0656,-68.6569,73.15,96,100,3.33,BR,1613872180
Bambous Virieux,-20.3428,57.7575,78.01,88,40,4.61,MU,1613872180
Nemuro,43.3236,145.575,32.0,43,75,9.22,JP,1613872109
Częstochowa,50.7965,19.1241,35.01,93,0,6.91,PL,1613872181
Hobart,-42.8794,147.3294,73.0,68,40,10.36,AU,1613871649
Miles City,46.4083,-105.8406,30.2,74,1,8.05,US,1613872181
Hong Kong,22.2855,114.1577,68.0,78,0,1.01,HK,1613871908
Kapuskasing,49.4169,-82.4331,14.0,73,0,2.3,CA,1613872181
Praia,14.9215,-23.5087,68.0,77,0,20.71,CV,1613872181
Katsuura,35.1333,140.3,62.6,55,0,8.05,JP,1613872182
Thompson,55.7435,-97.8558,12.2,85,20,4.61,CA,1613871871
Nikolskoye,59.7035,30.7861,21.2,86,90,8.95,RU,1613872182
Kaitangata,-46.2817,169.8464,66.99,72,0,8.01,NZ,1613871884
Makīnsk,52.6292,70.4169,-9.13,90,63,13.58,KZ,1613872182
Saint Paul Harbor,57.79,-152.4072,30.2,86,90,16.11,US,1613872182
Haines Junction,60.7522,-137.5108,3.2,60,100,1.12,CA,1613872183
Kontagora,10.3999,5.4695,69.3,22,0,6.8,NG,1613872183
Broome,42.2506,-75.833,21.0,86,90,8.05,US,1613872183
Pierre,44.3683,-100.351,33.8,86,90,5.75,US,1613872183
Ayabe,35.3,135.25,57.0,66,0,5.75,JP,1613872183
Ponta do Sol,32.6667,-17.1,51.01,77,100,1.99,PT,1613871947
Bonnyville,54.2668,-110.735,32.0,51,40,8.05,CA,1613872184
Kohlu,29.8962,69.252,51.1,41,88,0.67,PK,1613872184
Donghai,22.9459,115.642,67.95,48,11,4.18,CN,1613872184
Mkushi,-13.6202,29.3939,62.85,92,99,2.26,ZM,1613872184
Port Elizabeth,-33.918,25.5701,68.0,73,0,16.11,ZA,1613872185
Petauke,-14.2426,31.3253,65.32,95,100,1.41,ZM,1613872185
College,64.8569,-147.8028,-9.4,70,40,4.61,US,1613872079
Ahipara,-35.1667,173.1667,73.8,55,86,5.79,NZ,1613872185
Fort Nelson,58.8053,-122.7002,21.2,73,75,2.3,CA,1613872185
Cap Malheureux,-19.9842,57.6142,78.01,77,0,5.01,MU,1613872185
Bethel,41.3712,-73.414,28.4,50,20,4.61,US,1613871622
Carnarvon,-24.8667,113.6333,80.6,83,40,13.8,AU,1613871883
Zhezkazgan,47.8043,67.7144,1.98,92,77,7.31,KZ,1613872186
Martapura,-3.4167,114.85,84.2,79,40,4.61,ID,1613872186
Norman Wells,65.282,-126.8329,-13.0,70,75,3.44,CA,1613872246
Ust-Kuyga,70.0167,135.6,-33.45,80,18,4.81,RU,1613872246
Muros,42.7762,-9.0603,48.0,92,100,1.99,ES,1613872247
New Norfolk,-42.7826,147.0587,73.99,46,8,3.0,AU,1613872247
Chokurdakh,70.6333,147.9167,-29.67,84,94,5.95,RU,1613871883
Northampton,40.8754,-75.2499,24.01,81,0,8.34,US,1613872247
Pauini,-7.7136,-66.9764,73.58,96,100,2.35,BR,1613872247
São Sebastião,-23.76,-45.4097,74.52,84,10,5.46,BR,1613872218
Zyryanka,65.75,150.85,-25.94,81,20,0.51,RU,1613872248
Halifax,44.6453,-63.5724,23.0,93,100,6.91,CA,1613872240
Porto Nacional,-10.7081,-48.4172,75.2,94,75,3.44,BR,1613872248
Kichera,55.9375,110.0997,-3.42,82,100,2.42,RU,1613872248
Lázaro Cárdenas,17.9583,-102.2,71.13,81,0,6.4,MX,1613872248
Port-Gentil,-0.7193,8.7815,81.21,74,100,6.76,GA,1613872248
Körmend,47.011,16.606,39.0,100,90,4.61,HU,1613872248
Barcelos,41.5388,-8.6151,48.2,100,75,6.91,PT,1613872249
Klaksvík,62.2266,-6.589,44.6,100,90,21.85,FO,1613872249
Lewistown,40.5992,-77.5714,23.0,68,1,13.8,US,1613872249
Upernavik,72.7868,-56.1549,-23.75,82,18,14.7,GL,1613872249
Stornoway,58.2093,-6.3865,45.0,81,75,33.38,GB,1613872249
Saskylakh,71.9167,114.0833,-30.87,84,2,1.03,RU,1613872250
Butaritari,3.0707,172.7902,81.19,80,44,16.78,KI,1613872250
Waingapu,-9.6567,120.2641,84.97,71,13,9.91,ID,1613872250
Kieta,-6.2167,155.6333,85.26,70,43,4.81,PG,1613872250
Stavern,59.0,10.0333,37.99,100,90,5.75,NO,1613872250
Zabul Province,32.25,67.25,47.5,52,76,2.48,AF,1613872250
East London,-33.0153,27.9116,68.79,82,100,8.23,ZA,1613871952
Kikwit,-5.041,18.8162,69.75,92,100,0.69,CD,1613872251
Isangel,-19.55,169.2667,85.84,67,90,10.87,VU,1613872251
Matara,5.9485,80.5353,75.7,87,73,11.34,LK,1613872251
São João do Paraíso,-15.3136,-42.0144,68.4,93,100,6.49,BR,1613872251
Port Alfred,-33.5906,26.891,68.0,81,100,3.0,ZA,1613872039
Gravdal,68.1214,13.5031,30.38,98,79,18.52,NO,1613872251
Mahébourg,-20.4081,57.7,77.0,88,40,4.61,MU,1613872252
São Filipe,14.8961,-24.4956,70.09,76,0,12.59,CV,1613872252
Caravelas,-17.7125,-39.2481,78.48,84,100,10.16,BR,1613872252
Yellowknife,62.456,-114.3525,-5.01,71,90,6.91,CA,1613872252
Goba,7.0167,39.9833,51.33,91,100,2.08,ET,1613872252
Maţāy,28.419,30.7792,46.33,67,0,8.37,EG,1613872211
Langsa,4.4683,97.9683,82.26,67,99,2.77,ID,1613872110
Palana,59.1167,159.9667,9.05,95,63,9.91,RU,1613872253
Rocha,-34.4833,-54.3333,57.02,52,0,5.12,UY,1613872253
Vardø,70.3705,31.1107,18.01,94,95,22.77,NO,1613872253
Militello in Val di Catania,37.2748,14.7934,48.0,100,0,6.91,IT,1613872254
El Seibo,18.7641,-69.0375,73.4,94,40,4.61,DO,1613872254
Kropotkin,45.4375,40.5756,21.02,94,72,2.48,RU,1613872254
Zaysan,47.4667,84.8667,4.64,91,0,0.87,KZ,1613872254
Narsaq,60.9167,-46.05,19.4,79,90,4.61,GL,1613872314
Baykit,61.67,96.37,-14.89,84,97,1.72,RU,1613871949
Bonavista,48.6499,-53.1147,24.01,86,100,4.61,CA,1613872314
Kavaratti,10.5669,72.642,80.22,63,84,3.98,IN,1613872315
Palmas,-10.2128,-48.3603,75.2,94,75,3.44,BR,1613872315
Khanpur,28.6453,70.6567,58.39,33,60,3.33,PK,1613872315
Los Llanos de Aridane,28.6585,-17.9182,68.0,49,0,11.5,ES,1613871954
Chui,-33.6971,-53.4616,61.5,59,0,3.36,UY,1613872316
Sola,-13.8833,167.55,83.37,77,94,10.16,VU,1613872316
Hamilton,39.1834,-84.5333,24.8,68,1,2.21,US,1613871634
Kattivākkam,13.2167,80.3167,77.0,78,75,11.5,IN,1613872316
Ucluelet,48.9329,-125.5528,44.01,100,90,5.75,CA,1613872177
Mezhdurechensk,53.6942,88.0603,-6.52,87,67,3.06,RU,1613872317
Zelenogorskiy,55.0333,87.0,-11.2,77,40,4.47,RU,1613872317
Kyren,51.6828,102.1408,0.48,84,98,0.81,RU,1613872317
Menongue,-14.6585,17.691,60.98,92,100,10.09,AO,1613872317
Lumberton,34.6182,-79.0086,35.6,64,1,2.53,US,1613872317
Kavieng,-2.5744,150.7967,84.24,78,0,11.97,PG,1613872318
Primero de Enero,21.9469,-78.4283,75.2,83,40,9.22,CU,1613872318
Ulladulla,-35.35,150.4667,82.4,54,0,4.61,AU,1613872318
Moree,-29.4667,149.85,91.4,29,0,10.36,AU,1613872318
Rudraprayāg,30.2833,78.9833,57.78,36,0,2.73,IN,1613872318
Saint George,37.1041,-113.5841,50.0,37,90,11.5,US,1613872219
Lukovetskiy,64.2956,41.9211,-31.0,75,20,2.24,RU,1613872319
Sibolga,1.7427,98.7792,82.8,62,75,3.15,ID,1613872319
Tuatapere,-46.1333,167.6833,72.25,46,0,2.73,NZ,1613872319
Ouidah,6.3631,2.0851,82.4,74,20,5.75,BJ,1613872319
San Patricio,28.017,-97.5169,55.4,67,20,9.22,US,1613872319
Leshukonskoye,64.8989,45.7622,-32.49,84,0,4.21,RU,1613872319
Alma,48.5501,-71.6491,15.8,67,79,4.61,CA,1613872283
Santa Cecília,-26.9608,-50.4269,61.09,98,46,6.24,BR,1613872192
Banda Aceh,5.5577,95.3222,81.21,74,92,14.5,ID,1613872320
Dustlik,40.5247,68.0358,38.28,76,100,4.79,UZ,1613872320
Airai,-8.9266,125.4092,71.28,82,100,2.86,TL,1613872320
Kiruna,67.8557,20.2251,3.2,92,90,6.91,SE,1613872321
Saint-François,46.4154,3.9054,53.6,54,0,16.11,FR,1613872321
Qūchān,37.106,58.5095,32.68,93,17,2.39,IR,1613872321
Solano,38.2333,-121.9511,59.0,38,1,10.36,US,1613872321
Linhares,-19.3911,-40.0722,73.49,95,100,1.32,BR,1613872148
Zhaotong,27.3167,103.7167,52.0,68,76,1.5,CN,1613872322
La Libertad,-2.2333,-80.9,75.38,81,37,7.56,EC,1613872141
Timbiquí,2.7717,-77.6654,75.54,87,22,1.52,CO,1613872322
Adrar,20.5022,-10.0711,65.59,22,0,8.97,MR,1613872323
Calama,-22.4667,-68.9333,62.6,19,0,17.27,CL,1613872323
Najrān,17.4924,44.1277,59.0,55,0,2.75,SA,1613872323
Hithadhoo,-0.6,73.0833,82.22,76,74,12.08,MV,1613872323
Arrondissement de Foix,42.8333,1.5833,48.0,54,55,1.99,FR,1613872323
Conceição do Mato Dentro,-19.0372,-43.425,68.18,94,99,2.55,BR,1613872384
Motygino,58.1831,94.7592,-22.45,86,43,3.15,RU,1613872384
Sulangan,11.1373,123.7228,77.04,88,100,25.7,PH,1613872384
San Cristobal,7.7669,-72.225,65.23,86,56,1.81,VE,1613872384
Makkah al Mukarramah,21.4267,39.8261,65.07,53,0,4.9,SA,1613872384
Sutysky,49.0425,28.4173,24.46,98,100,5.44,UA,1613872384
Faya,18.3851,42.4509,57.2,88,75,8.05,SA,1613871953
Stann Creek Town,16.9692,-88.2321,69.01,94,75,6.91,BZ,1613872385
Krasnogorsk,55.8225,37.3181,14.0,85,100,6.71,RU,1613872385
Ketchikan,55.3422,-131.6461,42.8,100,90,17.27,US,1613872385
Hailar,49.2,119.7,7.11,94,100,11.9,CN,1613872385
Neryungri,56.6709,124.6491,-17.36,84,11,4.12,RU,1613872385
Tūkrah,32.5341,20.5791,51.93,75,0,4.36,LY,1613872386
Pinawa,50.1489,-95.8811,16.47,97,99,7.47,CA,1613872386
Jalu,29.0331,21.5482,52.38,52,0,7.36,LY,1613872386
Barentu,15.1139,37.5928,53.69,89,0,1.9,ER,1613872386
Ullapool,57.8987,-5.1604,44.01,66,22,11.01,GB,1613872386
Half Moon Bay,37.4636,-122.4286,55.99,87,1,10.36,US,1613872386
Pacific Grove,36.6177,-121.9166,53.01,87,12,5.01,US,1613872304
Jiangyou,31.7667,104.7167,62.51,49,0,0.78,CN,1613872387
Russell,32.3502,-85.1999,48.2,37,1,2.66,US,1613872387
Viedma,-40.8135,-62.9967,59.97,55,0,12.39,AR,1613872224
Vila Velha,-20.3297,-40.2925,82.99,88,40,5.75,BR,1613872387
Coquimbo,-29.9533,-71.3436,60.8,88,20,6.91,CL,1613872387
Ribeira Grande,38.5167,-28.7,56.21,63,99,19.08,PT,1613871883
Flinders,-34.5833,150.8552,84.99,68,0,4.0,AU,1613872388
Antofagasta,-23.65,-70.4,66.2,72,20,9.22,CL,1613872388
Puerto Escondido,15.85,-97.0667,78.8,78,1,3.44,MX,1613872388
Luangwa,-15.6167,30.4167,73.22,89,100,1.9,ZM,1613872388
Sussex,41.1834,-74.6663,26.6,68,20,4.61,US,1613872175
Birjand,32.8663,59.2211,39.2,33,0,4.61,IR,1613872389
Tasiilaq,65.6145,-37.6368,32.0,80,90,24.16,GL,1613872344
Nioro,13.35,-15.75,75.56,21,0,10.31,GM,1613872389
Emba,48.8264,58.1442,2.3,93,100,2.93,KZ,1613872389
Seidu,9.0167,-10.6,70.84,87,17,2.04,SL,1613872389
Carutapera,-1.195,-46.02,76.14,92,100,4.65,BR,1613872390
Ishigaki,24.3448,124.1572,71.6,53,40,9.22,JP,1613872390
Igarka,67.4667,86.5833,-27.98,85,94,5.48,RU,1613872390
Cabo San Lucas,22.8909,-109.9124,68.0,56,1,3.44,MX,1613872390
Provincia di Cagliari,39.245,9.0912,50.0,93,0,3.44,IT,1613872345
Colares,38.7992,-9.4469,51.01,92,100,12.88,PT,1613872391
Lompoc,34.6391,-120.4579,53.6,71,1,18.41,US,1613871948
Rūdbār,30.15,62.6,63.66,35,46,4.81,AF,1613872391
Province of Palermo,37.8167,13.5833,53.01,78,0,2.37,IT,1613872391
Lagoa,39.05,-27.9833,54.5,67,100,20.27,PT,1613872332
Port Hawkesbury,45.6169,-61.3485,21.99,86,90,9.82,CA,1613872391
Requena,39.4883,-1.1004,52.0,84,100,8.75,ES,1613872392
Plouzané,48.3833,-4.6167,51.8,100,90,9.22,FR,1613872452
Honmachi,32.5,130.6,62.6,63,20,11.5,JP,1613872452
Mitú,1.1983,-70.1733,74.88,88,100,3.38,CO,1613872452
Vicuña,-30.0319,-70.7081,60.8,88,20,6.91,CL,1613872452
Manokwari,-0.8667,134.0833,78.08,87,100,6.04,ID,1613872453
Yangi Marg`ilon,40.4272,71.7189,42.8,87,75,4.61,UZ,1613872453
Līsakovsk,52.5369,62.4936,-17.91,85,0,7.23,KZ,1613872453
Ballina,-28.8667,153.5667,80.6,83,75,16.11,AU,1613872453
Richards Bay,-28.783,32.0377,74.89,81,100,16.44,ZA,1613872453
Verkhoyansk,67.5447,133.385,-29.92,77,0,0.96,RU,1613872200
Ancud,-41.8697,-73.8203,55.4,67,90,3.44,CL,1613872454
Yurty,56.0498,97.6348,-9.65,89,75,5.08,RU,1613872454
Kudahuvadhoo,2.6708,72.8944,81.19,75,68,11.54,MV,1613872364
Havre-St-Pierre,50.2334,-63.5986,8.6,66,1,5.75,CA,1613872454
Paracelis,17.2667,121.4667,69.44,66,100,2.39,PH,1613872454
Lubango,-14.9172,13.4925,57.72,71,100,4.72,AO,1613872454
Jacareacanga,-6.2222,-57.7528,72.84,97,100,0.58,BR,1613872454
Montrose,38.4166,-108.2673,33.8,75,75,16.11,US,1613872455
Boone,39.0334,-92.3335,39.2,56,1,6.24,US,1613872194
Leningradskiy,69.3833,178.4167,-11.79,88,100,8.61,RU,1613872391
Dakar,14.6937,-17.4441,64.4,77,1,17.27,SN,1613872455
Poso,-1.3959,120.7524,84.76,61,84,2.91,ID,1613872166
Egvekinot,66.3167,-179.1667,-13.43,88,55,7.49,RU,1613872455
Pangody,65.85,74.4859,-41.04,81,12,2.1,RU,1613872455
Semey,50.4111,80.2275,-11.2,77,0,8.95,KZ,1613872390
Tyul'gan,52.3405,56.166,-23.35,88,77,2.71,RU,1613872456
Cayenne,4.9333,-52.3333,78.8,83,90,5.75,GF,1613872452
Lichinga,-13.3128,35.2406,64.4,100,75,9.22,MZ,1613872456
Padang,-0.9492,100.3543,84.2,70,20,2.3,ID,1613872456
Sungai Penuh,-2.0833,101.3833,72.68,77,74,2.55,ID,1613872457
Yanam,16.7333,82.2167,77.0,78,40,8.05,IN,1613872457
Dingle,10.9995,122.6711,74.53,85,100,11.81,PH,1613872457
Iqaluit,63.7506,-68.5145,-23.01,76,1,1.39,CA,1613872457
Trincomalee,8.5711,81.2335,79.36,78,82,11.34,LK,1613872457
Sistranda,63.7256,8.834,42.8,70,75,24.16,NO,1613872457
Kalga,50.9251,118.898,2.34,91,98,2.59,RU,1613872458
Quatre Cocos,-20.2078,57.7625,78.01,88,40,4.61,MU,1613872458
Berlevåg,70.8578,29.0864,15.49,91,5,26.04,NO,1613872458
Muaná,-1.5283,-49.2167,75.33,92,100,4.5,BR,1613872458
Tabas,33.5959,56.9244,49.96,42,0,4.92,IR,1613872458
Cairns,-16.9167,145.7667,88.0,66,40,2.3,AU,1613872458
Sri Aman,1.2376,111.4621,78.8,89,20,1.14,MY,1613872459
Brønnøysund,65.4625,12.1997,35.6,93,99,5.75,NO,1613872459
Axum,14.1245,38.7244,49.08,82,0,0.54,ET,1613872459
Reshetylivka,49.565,34.0782,26.01,98,100,8.99,UA,1613872459
Oskarshamn,57.2645,16.4484,34.0,94,100,6.55,SE,1613872459
Dicabisagan,17.0818,122.4157,70.77,76,100,7.63,PH,1613872459
Mogadishu,2.0371,45.3438,76.01,81,100,14.32,SO,1613872235
Pangnirtung,66.1451,-65.7125,-21.64,68,0,1.39,CA,1613872460
Karasburg,-28.0167,18.75,63.03,48,68,11.18,NA,1613872460
Shancheng,34.7953,116.0817,70.0,48,0,1.01,CN,1613872520
Vanimo,-2.6741,141.3028,82.92,75,99,1.52,PG,1613872520
Puerto Suárez,-18.95,-57.8,74.7,59,93,2.89,BO,1613872520
Northam,51.0333,-4.2167,48.99,90,44,5.99,GB,1613872521
Youhao,47.8667,128.8333,9.41,87,87,1.32,CN,1613872521
Mount Darwin,-16.7725,31.5838,68.54,86,100,3.58,ZW,1613872521
Swan River,52.1058,-101.2676,26.6,68,50,10.36,CA,1613872521
Harlingen,26.1906,-97.6961,59.0,67,1,11.5,US,1613872373
Guaca,6.8762,-72.8559,58.62,83,76,0.72,CO,1613872521
Mīnāb,27.1467,57.0801,66.2,82,75,6.91,IR,1613872522
Novy Urengoy,66.0833,76.6333,-41.03,81,10,1.25,RU,1613872522
Moussoro,13.6408,16.4901,63.01,26,0,12.39,TD,1613872522
Brae,60.3964,-1.353,48.2,81,50,28.77,GB,1613872522
Samarai,-10.6167,150.6667,85.26,69,31,8.21,PG,1613872522
Malanville,11.8685,3.3899,68.27,19,7,7.83,BJ,1613872522
Gairatganj,23.4202,78.2385,59.9,33,75,3.09,IN,1613872523
Challakere,14.3167,76.65,70.41,71,75,8.99,IN,1613872523
Mossamedes,-15.1961,12.1522,70.7,71,99,7.45,AO,1613872523
Marsá Maţrūḩ,31.3525,27.2453,48.2,81,0,4.43,EG,1613872523
Arlit,18.7369,7.3853,58.89,28,0,2.95,NE,1613872523
Severo-Kuril'sk,50.6789,156.125,29.01,97,100,24.16,RU,1613872523
Borogontsy,62.6683,131.1683,-20.02,86,93,4.38,RU,1613872524
Norfolk,42.1668,-71.2495,26.01,74,48,6.93,US,1613872327
Torbay,47.6666,-52.7314,26.01,74,90,12.66,CA,1613872524
Korla,41.7597,86.1469,40.28,61,57,8.34,CN,1613872524
Kahului,20.8947,-156.47,80.6,50,40,19.57,US,1613872225
Dawlatabad,36.4141,64.9053,45.12,63,88,4.23,AF,1613872524
Carauari,-4.8828,-66.8958,71.46,96,87,1.45,BR,1613872525
Berdigestyakh,62.0989,126.6992,-20.06,85,100,4.27,RU,1613872525
Pevek,69.7008,170.3133,-19.37,87,100,4.79,RU,1613872525
Bairiki Village,1.3292,172.9752,84.2,79,20,5.75,KI,1613872525
Yantal',56.8471,105.2542,-6.43,87,100,7.92,RU,1613872525
Khovd,48.0056,91.6419,21.87,74,0,3.22,MN,1613872526
Pitimbu,-7.4706,-34.8086,80.6,83,20,11.5,BR,1613872526
Whyalla,-33.0333,137.5833,69.8,64,75,19.57,AU,1613872526
Masvingo,-20.0637,30.8277,68.4,81,100,5.95,ZW,1613872526
High Level,58.5169,-117.136,21.2,79,75,4.61,CA,1613872402
Joshīmath,30.5667,79.5667,50.74,34,0,5.03,IN,1613872527
Olafsvik,64.8945,-23.7142,38.79,76,54,11.23,IS,1613872527
Amalāpuram,16.5833,82.0167,77.0,78,40,8.05,IN,1613872501
Kargasok,59.0556,80.8572,-18.54,87,100,9.46,RU,1613872397
Grootfontein,-19.5667,18.1167,64.67,91,100,8.41,NA,1613872527
Bilma,18.6853,12.9164,61.47,28,70,5.41,NE,1613872527
Yenagoa,4.9247,6.2642,76.24,84,100,3.02,NG,1613872528
Mercedes,-34.6515,-59.4307,66.0,75,0,8.77,AR,1613872417
Witney,51.7836,-1.4854,51.8,82,75,9.22,GB,1613872528
St. Pete Beach,27.7253,-82.7412,62.01,60,0,5.01,US,1613872528
Henties Bay,-22.116,14.2845,62.01,88,34,5.99,NA,1613872528
Uray,60.1247,64.7758,-22.65,87,90,4.5,RU,1613872343
Algiers,36.7525,3.042,68.0,26,0,5.75,DZ,1613872589
Iwanai,42.9744,140.5089,26.98,90,100,14.63,JP,1613872589
Warwick,41.7001,-71.4162,30.0,59,90,11.5,US,1613872589
Dwārka,22.2394,68.9678,72.68,47,80,14.18,IN,1613872401
Yacuiba,-22.038,-63.6797,75.79,72,97,2.77,BO,1613872589
Clyde River,70.4692,-68.5914,-34.6,67,1,6.29,CA,1613872323
Fortuna,40.5982,-124.1573,48.99,81,40,13.8,US,1613872590
Paamiut,61.994,-49.6678,6.15,88,48,12.71,GL,1613872590
Sal Rei,16.1833,-22.9167,66.2,77,20,11.5,CV,1613872590
Koumac,-20.5667,164.2833,85.51,68,100,5.95,NC,1613872590
Takhtamygda,54.1,123.5667,-5.84,83,96,2.91,RU,1613872590
Crowley,30.2141,-92.3746,46.4,61,1,4.61,US,1613872590
Vengerovo,55.6848,76.7471,-5.26,92,100,10.22,RU,1613872591
Muravlenko,63.7898,74.523,-21.95,88,100,7.63,RU,1613872591
Cidreira,-30.1811,-50.2056,73.15,81,39,7.78,BR,1613872591
Tiksi,71.6872,128.8694,-26.37,84,35,2.42,RU,1613872591
Poronaysk,49.2167,143.1167,23.49,90,96,11.01,RU,1613872591
Talara,-4.5772,-81.2719,72.55,83,35,11.63,PE,1613872591
Raduzhny,62.0961,77.475,-12.87,89,100,7.58,RU,1613872592
Nador,35.174,-2.9287,59.0,94,90,5.75,MA,1613872592
Rio Grande,-32.035,-52.0986,69.01,93,39,9.53,BR,1613872431
San Juan,-31.5375,-68.5364,78.89,33,0,6.24,AR,1613872511
Bayburt,40.2589,40.2278,5.72,88,0,2.06,TR,1613872592
Peniche,39.3558,-9.3811,50.0,92,100,1.99,PT,1613872592
Esperance,-33.8667,121.9,69.8,56,0,6.91,AU,1613872593
Matamoros,25.5333,-103.25,78.8,14,1,4.97,MX,1613872593
Sørland,67.667,12.6934,37.22,92,100,21.92,NO,1613872419
Fallon,39.4735,-118.7774,44.6,39,90,10.36,US,1613872593
Tocopilla,-22.092,-70.1979,67.12,65,16,9.37,CL,1613872313
Kizhinga,51.8462,109.9097,-5.6,82,28,17.56,RU,1613872593
Muromtsevo,56.3724,75.2418,-7.92,90,100,6.4,RU,1613872594
Kurchum,48.5722,83.6542,-2.22,89,12,1.81,KZ,1613872594
Kawalu,-7.3817,108.2082,82.85,62,62,2.91,ID,1613872594
Newport,51.5877,-2.9984,51.01,85,82,10.76,GB,1613872594
Dingli,35.8614,14.3822,54.0,100,20,6.91,MT,1613872594
Tutóia,-2.7619,-42.2744,78.21,87,100,8.77,BR,1613872595
Eureka,40.8021,-124.1637,50.0,74,25,8.01,US,1613872595
Dhībān,35.0365,40.5167,41.38,60,4,7.11,SY,1613872595
Québec,46.8123,-71.2145,19.4,94,95,1.14,CA,1613872353
Vostok,46.4856,135.8833,8.85,92,87,4.12,RU,1613872595
Weston,26.1004,-80.3998,66.2,72,1,14.97,US,1613872596
Ganzhou,28.8184,115.4327,63.41,55,0,4.76,CN,1613872596
Helena,46.5927,-112.0361,32.0,55,40,17.27,US,1613872584
Assiut,27.181,31.1837,46.4,71,0,10.36,EG,1613872596
Kabale,-1.2486,29.9899,56.95,83,100,2.93,UG,1613872596
Buala,-8.145,159.5921,84.02,77,88,8.52,SB,1613872596
Yima,34.7381,111.8839,73.0,99,0,14.74,CN,1613872597
Longonjo,-12.9067,15.2533,59.45,91,100,1.74,AO,1613872657
Mwense,-10.3845,28.698,65.41,91,100,6.51,ZM,1613872657
Calatayud,41.3535,-1.6432,48.2,93,90,5.75,ES,1613872657
Bilibino,68.0546,166.4372,-18.49,72,3,1.81,RU,1613872657
Port Macquarie,-31.4333,152.9167,71.6,100,75,11.5,AU,1613872657
Wellington,-41.2866,174.7756,70.0,60,76,21.85,NZ,1613872401
Kruisfontein,-34.0033,24.7314,66.0,73,99,1.01,ZA,1613872658
Yulara,-25.2406,130.9889,93.2,27,9,12.66,AU,1613872658
Kiryat Gat,31.61,34.7642,46.0,100,0,6.13,IL,1613872622
Morondava,-20.2833,44.2833,80.26,83,100,3.96,MG,1613872658
San Rafael,-34.6177,-68.3301,73.89,38,0,7.58,AR,1613872659
Beringovskiy,63.05,179.3167,-13.27,84,17,11.56,RU,1613872659
Švenčionys,55.15,26.1667,31.73,99,100,8.16,LT,1613872659
San Bernardo,-33.6,-70.7167,71.01,52,0,6.91,CL,1613872659
Ostrovnoy,68.0531,39.5131,-16.51,88,94,8.08,RU,1613872659
Jiuquan,39.7432,98.5174,38.91,55,20,2.42,CN,1613872660
Zhoucheng,35.9122,116.3117,59.0,1,0,8.77,CN,1613872660
Abnūb,27.2696,31.1511,46.4,71,0,10.36,EG,1613872371
Talca,-35.4333,-71.6667,71.6,40,0,4.61,CL,1613872570
Cherskiy,68.75,161.3,-27.17,85,100,4.45,RU,1613872660
Yarmouth,41.7057,-70.2286,30.99,55,20,12.66,US,1613872661
San Diego,32.7153,-117.1573,60.8,63,20,8.05,US,1613872383
Nadym,65.5333,72.5167,-40.2,82,9,3.44,RU,1613872661
Merrill,45.1805,-89.6835,15.8,85,1,6.15,US,1613872661
Riihimäki,60.7377,24.7773,36.0,98,100,1.99,FI,1613872662
Vao,-22.6667,167.4833,79.95,83,99,17.94,NC,1613872382
Abilay,10.7333,122.5,75.24,78,100,6.76,PH,1613872662
Komsomolets,53.7453,62.0708,-13.63,84,0,7.09,KZ,1613872662
Griffith,41.5284,-87.4237,21.2,73,1,4.61,US,1613872662
West Plains,36.7281,-91.8524,36.0,55,1,8.05,US,1613872628
Puri,19.8,85.85,66.2,72,20,7.02,IN,1613872472
Diffa,13.3154,12.6113,62.15,35,7,10.36,NE,1613872663
Waddān,29.1614,16.139,52.9,42,0,7.16,LY,1613872663
Bengkulu,-3.8004,102.2655,82.44,69,95,3.44,ID,1613872663
Wanning,18.8003,110.3967,70.74,66,4,3.56,CN,1613872663
Fiumicino,41.7675,12.2291,46.99,100,0,3.44,IT,1613872663
Villarrobledo,39.2699,-2.6012,45.0,90,100,11.99,ES,1613872663
Quang Ngai,15.1167,108.8,71.64,74,5,2.62,VN,1613872664
Roald,62.5833,6.1333,50.0,62,75,14.97,NO,1613872664
Pingliang,35.5392,106.6861,51.4,39,9,5.44,CN,1613872664
Rāver,21.25,76.0333,66.72,26,69,6.02,IN,1613872664
Mogwase,-25.185,27.2665,69.22,35,45,2.39,ZA,1613872664
Nome,64.5011,-165.4064,-2.2,60,1,5.75,US,1613872664
Shinyanga,-3.6667,33.4333,64.87,92,100,6.64,TZ,1613872664
